- title: Boxing Day Tour
  date: 26/12/2019
  time: "11:00"
  location: The Powell Arms, Birchington-on-sea
  href: https://wantsum-morris.org.uk/boxing-day/
  lat: 51.373922
  lon: 1.306474

- title: Green Hop Festival
  date: 19/10/2019
  time: "15:30"
  location: Wantsum Brewery, St. Nicholas-At-Wade
  href: http://www.wantsumbrewery.co.uk/
  
- title: Hop Hoodening Festival
  date: 14/09/2019
  time: "10:50"
  location: Canterbury Cathedral and dancing around the city
  href: https://wantsum-morris.org.uk/hop-hoodening/
  lat: 51.279894
  lon: 1.081845

- title: Pre-Hop Hoodening Dancing
  date: 11/09/2019
  time: "19:00"
  location: Hair Of The Dog, Minster
  href: https://www.hairofthedogpub.co.uk/
  lat: 51.334422
  lon: 1.314851

- title: Broadstairs Folk Week
  date: 15/08/2019
  time: "14:00"
  location: The Parade (Viking Bay), Broadstairs
  href: https://broadstairsfolkweek.org.uk/
  lat: 51.358279
  lon: 1.442575

- title: Broadstairs Folk Week
  date: 13/08/2019
  time: "14:00"
  location: The Parade (Viking Bay), Broadstairs
  href: https://broadstairsfolkweek.org.uk/
  lat: 51.358279
  lon: 1.442575

- title: Broadstairs Folk Week
  date: 11/08/2019
  time: "14:00"
  location: The Parade (Viking Bay), Broadstairs
  href: https://broadstairsfolkweek.org.uk/
  lat: 51.358279
  lon: 1.442575

- title: Louis Armstrong Pub
  date: 30/07/2019
  time: "20:00"
  location: Dover
  lat: 51.131437
  lon: 1.307594

- title: Kent Beer Festival
  date: 20/07/2019
  time: "15:00"
  location: Canterbury Rugby Club
  lat: 51.256608
  lon: 1.081927

- title: Minster Summer Fayre
  date: 20/07/2019
  time: "13:00"
  location: Minster Recreation Ground
  lat: 51.331944
  lon: 1.312012

- title: Remembrance Dance at The Bell Inn
  date: 16/07/2019
  time: "19:30"
  location: St. Nicholas
  lat: 51.353414
  lon: 1.253368

- title: Sandwich Folk and Ale
  date: 07/07/2019
  time: "11:00"
  location: Sandwitch
  href: https://sandwichevents.org.uk/folkandalefestival/

- title: Chilham Chase
  date: 06/07/2019
  time: "13:00"
  location: Chilham
  href: https://www.chilham-castle.co.uk/event/the-chilham-chase-family-fun-run-and-entertainment/

- title: Chislet Summer Fayre
  date: 29/06/2019
  time: "13:00"
  location: Chislet
  href: https://www.facebook.com/chislet.fair/



